++
---
$00000,000000.000,V,9900.0000,N,00000.0000,W,00.00,000.00,000000,153*56
$00000,000000.000,V,9900.0000,N,00000.0000,W,00.00,000.00,000000,152*57
$00000,000000.000,V,9900.0000,N,00000.0000,W,00.00,000.00,000000,153*56
$GPRMC,071050.00,A,5653.97784,N,02405.32118,E,0.020,346.74,301212,153*12
---
$GPRMC,071345,A,5654.046,N,02405.408,E,006.4,021,301212,216*13
$GPRMC,072936.00,A,5656.62928,N,02406.62000,E,0.423,105.51,301212,217*17
$GPRMC,071418,A,5654.044,N,02405.509,E,011.1,101,301212,216*1e
$GPRMC,071440,A,5654.104,N,02405.593,E,027.0,011,301212,216*11
$GPRMC,071502,A,5654.281,N,02405.640,E,034.0,006,301212,216*11
$GPRMC,071511,A,5654.366,N,02405.672,E,032.2,012,301212,216*1b
$GPRMC,071526,A,5654.453,N,02405.703,E,011.6,008,301212,216*17
$GPRMC,071554,A,5654.564,N,02405.728,E,029.6,007,301212,216*1a
$GPRMC,071606,A,5654.664,N,02405.752,E,031.1,007,301212,216*1e
$GPRMC,071627,A,5654.747,N,02405.667,E,027.5,275,301212,216*1e
$GPRMC,071633,A,5654.750,N,02405.583,E,024.4,275,301212,216*16
$GPRMC,071640,A,5654.759,N,02405.494,E,026.4,285,301212,216*11
$GPRMC,071652,A,5654.784,N,02405.404,E,012.0,351,301212,216*10
$GPRMC,071707,A,5654.874,N,02405.430,E,021.9,007,301212,216*1f
$GPRMC,071723,A,5654.963,N,02405.460,E,011.5,012,301212,216*10
$GPRMC,071741,A,5655.051,N,02405.507,E,019.3,017,301212,216*16
$GPRMC,072657,A,5656.620,N,02406.640,E,000.0,261,301212,217*1a
$GPRMC,072657,A,5656.620,N,02406.640,E,000.0,261,301212,217*1a
##
---
$GPRMC,075045.00,A,5656.63301,N,02406.61309,E,0.012,221.66,301212,217*13
##
---
$GPRMC,080403.00,A,5656.63152,N,02406.61485,E,0.014,18.88,301212,217*26
$GPRMC,081134.00,A,5656.59026,N,02406.74729,E,19.356,133.60,301212,217*2f
$GPRMC,081145.00,A,5656.56074,N,02406.83308,E,15.809,107.82,301212,217*28
$GPRMC,081158.00,A,5656.54232,N,02406.93152,E,16.872,108.26,301212,217*24
$GPRMC,081207.00,A,5656.52652,N,02407.01767,E,19.475,108.70,301212,217*24
$GPRMC,081219.00,A,5656.50733,N,02407.10790,E,11.496,107.37,301212,217*2e
$GPRMC,081255.00,A,5656.44996,N,02407.06115,E,0.149,214.08,301212,217*14
---
$GPRMC,081343,A,5656.338,N,02407.292,E,033.2,125,301212,217*11
$GPRMC,083145.00,A,5654.17621,N,02405.45355,E,6.718,225.55,301212,217*1e
$GPRMC,081351,A,5656.297,N,02407.400,E,029.0,121,301212,217*16
$GPRMC,081407,A,5656.325,N,02407.570,E,025.8,055,301212,217*1a
$GPRMC,081416,A,5656.343,N,02407.677,E,027.3,116,3012
$GPRMC,081431,A,5656.243,N,02407.635,E,031.9,219,301212,217*12
$GPRMC,081441,A,5656.166,N,02407.512,E,039.6,221,301212,217*1b
$GPRMC,081447,A,5656.113,N,02407.426,E,044.4,221,301212,217*11
$GPRMC,081453,A,5656.055,N,02407.332,E,046.9,221,301212,217*1a
$GPRMC,081459,A,5655.998,N,02407.241,E,046.0,221,301212,217*17
$GPRMC,081505,A,5655.941,N,02407.149,E,044.7,221,301212,217*15
$GPRMC,081511,A,5655.884,N,02407.057,E,047.2,221,301212,217*10
$GPRMC,081517,A,5655.825,N,02406.962,E,046.4,221,301212,217*14
$GPRMC,081524,A,5655.756,N,02406.850,E,047.7,221,301212,217*1d
$GPRMC,081530,A,5655.699,N,02406.758,E,043.5,221,301212,217*1b
$GPRMC,081536,A,5655.649,N,02406.672,E,039.0,225,301212,217*15
$GPRMC,081545,A,5655.586,N,02406.551,E,032.3,226,301212,217*18
$GPRMC,081554,A,5655.563,N,02406.430,E,024.3,243,301212,217*11
$GPRMC,081607,A,5655.466,N,02406.339,E,033.6,199,301212,217*19
$GPRMC,081637,A,5655.271,N,02406.010,E,030.9,239,301212,217*17
$GPRMC,081647,A,5655.238,N,02405.891,E,017.4,243,301212,217*1a
$GPRMC,081656,A,5655.231,N,02405.866,E,000.0,241,301212,217*1b
$GPRMC,081745,A,5655.140,N,02405.900,E,024.1,183,301212,217*16
$GPRMC,081757,A,5655.048,N,02405.843,E,034.8,211,301212,217*1a
$GPRMC,081809,A,5654.951,N,02405.793,E,031.0,168,301212,217*1c
$GPRMC,081819,A,5654.864,N,02405.795,E,031.1,187,301212,217*1c
$GPRMC,081831,A,5654.765,N,02405.770,E,027.9,187,301212,217*1c
$GPRMC,081843,A,5654.672,N,02405.747,E,029.3,188,301212,217*11
$GPRMC,081856,A,5654.567,N,02405.721,E,029.0,187,301212,217*1e
$GPRMC,081908,A,5654.475,N,02405.699,E,029.5,187,301212,217*11
$GPRMC,081920,A,5654.369,N,02405.665,E,033.0,191,301212,217*1b
$GPRMC,081932,A,5654.267,N,02405.630,E,027.6,187,301212,217*13
$GPRMC,081957,A,5654.181,N,02405.580,E,010.0,190,301212,217*17
$GPRMC,082012,A,5654.166,N,02405.585,E,000.4,107,301212,217*1b
$GPRMC,083134,A,5654.195,N,02405.488,E,009.1,223,301212,217*16
$GPRMC,083212.00,A,5654.12179,N,02405.39792,E,6.564,202.16,301212,217*1f
$GPRMC,083257.00,A,5654.03694,N,02405.39939,E,9.197,199.66,301212,217*14
$GPRMC,083303.00,A,5654.03004,N,02405.39580,E,0.114,14.58,301212,217*2e
$GPRMC,083310.00,A,5654.03557,N,02405.39871,E,0.693,339.85,301212,217*18
$GPRMC,083347.00,A,5653.99115,N,02405.31196,E,5.134,250.91,301212,217*10
$GPRMC,083411.00,A,5653.97986,N,02405.32284,E,0.169,48.80,301212,217*2d
---
##
---
$00000,000000.000,V,9900.0000,N,00000.0000,W,00.00,000.00,000000,150*55
$00000,000000.000,V,9900.0000,N,00000.0000,W,00.00,000.00,000000,150*55
$00000,000000.000,V,9900.0000,N,00000.0000,W,00.00,000.00,000000,151*54
$GPRMC,122745.00,A,5654.38256,N,02405.60380,E,1.262,192.90,301212,152*1f
$GPRMC,122751.00,A,5653.98321,N,02405.32000,E,0.310,241.66,301212,153*1a
$GPRMC,122834.00,A,5653.99002,N,02405.29834,E,0.373,107.05,301212,156*14
$GPRMC,122850.00,A,5653.99206,N,02405.31494,E,0.010,161.78,301212,155*10
$GPRMC,122935.00,A,5654.05004,N,02405.40620,E,10.310,20.23,301212,158*1e
$GPRMC,123019.00,A,5654.04534,N,02405.49400,E,9.607,103.30,301212,160*14
$GPRMC,123028.00,A,5654.03722,N,02405.50626,E,0.411,150.32,301212,161*13
$GPRMC,123340.00,A,5654.03659,N,02405.55904,E,0.050,60.87,301212,172*26
$GPRMC,123401.00,A,5654.07265,N,02405.58007,E,23.525,11.36,301212,173*17
$GPRMC,123418.00,A,5654.13235,N,02405.60128,E,0.014,164.27,301212,173*1d
$GPRMC,123432.00,A,5654.17697,N,02405.61584,E,26.005,11.03,301212,174*18
$GPRMC,123443.00,A,5654.26116,N,02405.63449,E,23.941,6.56,301212,174*2a
$GPRMC,123503.00,A,5654.35945,N,02405.66675,E,14.266,12.70,301212,176*12
$GPRMC,123524.00,A,5654.42664,N,02405.69259,E,0.014,250.52,301212,177*19
$GPRMC,123538.00,A,5654.45550,N,02405.70075,E,18.182,7.57,301212,178*2e
$GPRMC,123555.00,A,5654.56047,N,02405.72462,E,22.703,6.43,301212,179*27
$GPRMC,123609.00,A,5654.66303,N,02405.74971,E,27.887,7.48,301212,180*2e
$GPRMC,123625.00,A,5654.75941,N,02405.77481,E,18.034,7.73,301212,180*2b
$GPRMC,123640.00,A,5654.85770,N,02405.79786,E,23.178,7.13,301212,181*27
$GPRMC,123701.00,A,5654.94990,N,02405.82524,E,18.124,1.62,301212,183*2e
$GPRMC,123716.00,A,5655.03684,N,02405.82579,E,29.828,31.45,301212,185*12
$GPRMC,123734.00,A,5655.15871,N,02405.90531,E,15.081,3.98,301212,186*28
$GPRMC,123741.00,A,5655.16734,N,02405.90497,E,0.950,5.51,301212,186*18
$GPRMC,123824.00,A,5655.22004,N,02405.85602,E,0.363,341.12,301212,189*1c
$GPRMC,123840.00,A,5655.24938,N,02405.82707,E,23.003,328.22,301212,190*2d
$GPRMC,123839.00,A,5655.35137,N,02405.72543,E,30.368,333.85,301212,191*23
$GPRMC,123852.00,A,5655.45061,N,02405.65483,E,27.777,342.36,301212,193*20
$GPRMC,123907.00,A,5655.56319,N,02405.57985,E,29.812,338.04,301212,194*2c
$GPRMC,123923.00,A,5655.66470,N,02405.61389,E,30.337,29.94,301212,195*1d
$GPRMC,123933.00,A,5655.73906,N,02405.69735,E,28.724,22.25,301212,196*12
$GPRMC,123944.00,A,5655.78562,N,02405.80601,E,27.690,78.64,301212,197*1c
$GPRMC,123954.00,A,5655.83704,N,02405.89622,E,30.179,31.49,301212,197*17
$GPRMC,124005.00,A,5655.92348,N,02405.95259,E,30.442,2.91,301212,198*23
$GPRMC,124017.00,A,5656.02922,N,02405.92509,E,31.911,350.20,301212,199*2c
$GPRMC,124030.00,A,5656.13727,N,02405.88993,E,29.075,353.45,301212,200*27
$GPRMC,124042.00,A,5656.23842,N,02405.87216,E,30.730,345.45,301212,200*2d
$GPRMC,124055.00,A,5656.33884,N,02405.79708,E,27.625,335.95,301212,201*23
$GPRMC,124121.00,A,5656.45508,N,02405.74705,E,27.353,314.56,301212,203*23
$GPRMC,124138.00,A,5656.46125,N,02405.60871,E,24.798,225.15,301212,204*29
$GPRMC,124149.00,A,5656.41185,N,02405.51915,E,18.956,225.92,301212,204*2f
$GPRMC,124207.00,A,5656.40889,N,02405.39299,E,26.365,293.54,301212,205*22
$GPRMC,124214.00,A,5656.43399,N,02405.29343,E,34.509,293.47,301212,206*20
$GPRMC,124220.00,A,5656.45560,N,02405.20096,E,33.735,293.63,301212,205*2c
$GPRMC,124226.00,A,5656.47859,N,02405.10668,E,33.410,293.65,301212,206*2a
$GPRMC,124232.00,A,5656.50004,N,02405.02011,E,30.694,293.85,301212,207*20
$GPRMC,124239.00,A,5656.52400,N,02404.91913,E,31.962,294.47,301212,206*26
$GPRMC,124245.00,A,5656.54533,N,02404.83476,E,27.691,298.87,301212,206*23
$GPRMC,124254.00,A,5656.57620,N,02404.71602,E,28.666,296.14,301212,207*2f
$GPRMC,124303.00,A,5656.61468,N,02404.61505,E,28.164,320.91,301212,207*26
$GPRMC,124315.00,A,5656.68696,N,02404.51892,E,24.075,328.16,301212,207*21
$GPRMC,124331.00,A,5656.73132,N,02404.47010,E,0.271,321.49,301212,208*1d
$GPRMC,124359.00,A,5656.78183,N,02404.42889,E,25.552,336.90,301212,209*2d
$GPRMC,124411.00,A,5656.87089,N,02404.35939,E,31.559,337.55,301212,209*21
$GPRMC,124424.00,A,5656.96627,N,02404.26917,E,29.173,313.73,301212,210*24
$GPRMC,124432.00,A,5657.00369,N,02404.17845,E,26.366,300.21,301212,210*2a
$GPRMC,124440.00,A,5657.02925,N,02404.08619,E,24.418,294.99,301212,211*24
$GPRMC,124448.00,A,5657.04637,N,02403.99870,E,19.680,282.66,301212,210*23
$GPRMC,124457.00,A,5657.05133,N,02403.95558,E,0.053,110.68,301212,211*13
$GPRMC,124528.00,A,5657.05592,N,02403.90714,E,17.769,278.98,301212,211*20
$GPRMC,124542.00,A,5657.11272,N,02403.80842,E,18.972,329.33,301212,212*21
$GPRMC,124558.00,A,5657.20986,N,02403.77097,E,24.489,4.04,301212,212*2e
$GPRMC,124617.00,A,5657.27002,N,02403.80194,E,0.020,51.63,301212,212*2e
---
$00000,000000.000,V,9900.0000,N,00000.0000,W,00.00,000.00,000000,135*56
$00000,000000.000,V,9900.0000,N,00000.0000,W,00.00,000.00,000000,134*57
$00000,000000.000,V,9900.0000,N,00000.0000,W,00.00,000.00,000000,134*57
$GPRMC,162753.00,A,5657.25688,N,02403.78220,E,11.707,193.40,301212,135*2a
$GPRMC,162758.00,A,5657.17875,N,02403.69826,E,16.400,182.60,301212,135*21
$GPRMC,162820.00,A,5657.11867,N,02403.79162,E,16.840,159.03,301212,136*24
$GPRMC,162835.00,A,5657.04364,N,02403.88235,E,18.862,140.87,301212,136*29
$GPRMC,162857.00,A,5656.96302,N,02403.79799,E,24.093,212.67,301212,137*28
$GPRMC,162909.00,A,5656.89641,N,02403.70008,E,26.379,224.73,301212,137*2d
$GPRMC,162927.00,A,5656.85217,N,02403.61572,E,9.435,237.17,301212,139*1e
$GPRMC,162940.00,A,5656.88768,N,02403.52135,E,23.807,302.92,301212,139*27
$GPRMC,162949.00,A,5656.91017,N,02403.43322,E,10.264,259.97,301212,139*28
$GPRMC,163010.00,A,5656.83641,N,02403.34141,E,13.700,227.26,301212,140*24
$GPRMC,163032.00,A,5656.81932,N,02403.24904,E,7.573,258.74,301212,141*18
$GPRMC,163107.00,A,5656.79165,N,02403.20857,E,0.025,144.87,301212,143*10
$GPRMC,163239.00,A,5656.79221,N,02403.25297,E,0.835,32.92,301212,148*28
$GPRMC,163256.00,A,5656.79475,N,02403.25902,E,0.474,75.41,301212,149*24
##
---
$GPRMC,171252.00,A,5656.79028,N,02403.25918,E,0.008,171.53,301212,184*1c
##
---
$GPRMC,180059.00,A,5656.79553,N,02403.25338,E,0.009,154.43,301212,177*11
$GPRMC,184105.00,A,5656.91218,N,02403.29701,E,11.247,2.64,301212,167*2f
$GPRMC,184121.00,A,5656.91738,N,02403.39434,E,20.819,98.07,301212,166*1e
$GPRMC,184130.00,A,5656.89891,N,02403.48959,E,24.828,118.75,301212,166*21
$GPRMC,184139.00,A,5656.86460,N,02403.58101,E,22.002,128.68,301212,166*28
$GPRMC,184149.00,A,5656.82615,N,02403.67641,E,23.374,120.72,301212,166*24
$GPRMC,184158.00,A,5656.78938,N,02403.76542,E,24.140,134.18,301212,166*2a
$GPRMC,184210.00,A,5656.72483,N,02403.86174,E,20.677,141.06,301212,166*26
$GPRMC,184228.00,A,5656.65200,N,02403.96697,E,17.770,139.71,301212,166*20
$GPRMC,184257.00,A,5656.57696,N,02404.05494,E,15.286,147.82,301212,166*25
$GPRMC,184312.00,A,5656.49556,N,02404.14503,E,24.854,150.01,301212,166*20
$GPRMC,184330.00,A,5656.40662,N,02404.23506,E,24.471,160.91,301212,166*2d
$GPRMC,184345.00,A,5656.33642,N,02404.32472,E,19.642,109.83,301212,166*2b
$GPRMC,184416.00,A,5656.25131,N,02404.36183,E,19.847,106.74,301212,166*2d
$GPRMC,184425.00,A,5656.24553,N,02404.44731,E,19.168,95.11,301212,167*1b
$GPRMC,184440.00,A,5656.21373,N,02404.55170,E,7.007,131.49,301212,167*1f
$GPRMC,184444.00,A,5656.21013,N,02404.55477,E,0.398,133.01,301212,167*10
$GPRMC,184541.00,A,5656.12378,N,02404.52875,E,21.617,192.52,301212,168*20
$GPRMC,184557.00,A,5656.05474,N,02404.50847,E,0.074,32.48,301212,168*29
$GPRMC,184612.00,A,5656.03024,N,02404.61197,E,22.549,117.57,301212,168*29
$GPRMC,184623.00,A,5655.99458,N,02404.74455,E,28.550,117.69,301212,168*24
$GPRMC,184632.00,A,5655.97637,N,02404.87900,E,32.143,92.90,301212,169*16
$GPRMC,184650.00,A,5655.89584,N,02404.96686,E,21.696,142.97,301212,169*21
$GPRMC,184703.00,A,5655.84569,N,02405.09658,E,25.384,106.92,301212,169*2b
$GPRMC,184714.00,A,5655.82756,N,02405.22017,E,20.561,102.65,301212,170*2d
$GPRMC,184724.00,A,5655.80787,N,02405.30946,E,19.423,132.91,301212,170*2b
$GPRMC,184744.00,A,5655.72388,N,02405.41296,E,13.550,145.20,301212,170*2e
$GPRMC,184751.00,A,5655.71295,N,02405.42531,E,0.234,134.89,301212,170*1f
$GPRMC,184841.00,A,5655.60300,N,02405.41903,E,22.248,187.67,301212,171*20
$GPRMC,184857.00,A,5655.50227,N,02405.39473,E,23.178,188.08,301212,171*22
$GPRMC,184911.00,A,5655.41793,N,02405.37218,E,22.858,187.85,301212,171*2e
$GPRMC,184943.00,A,5655.24438,N,02405.32723,E,13.155,188.76,301212,172*26
$GPRMC,185012.00,A,5655.15266,N,02405.30746,E,13.262,187.88,301212,173*2c
$GPRMC,185025.00,A,5655.12779,N,02405.30072,E,0.488,185.44,301212,173*16
$GPRMC,185114.00,A,5655.05471,N,02405.27976,E,27.486,190.05,301212,174*2e
$GPRMC,185130.00,A,5654.95638,N,02405.25682,E,27.383,187.83,301212,176*21
$GPRMC,185142.00,A,5654.85793,N,02405.23091,E,26.414,187.65,301212,175*24
$GPRMC,185154.00,A,5654.75708,N,02405.20265,E,32.550,189.64,301212,175*2f
$GPRMC,185220.00,A,5654.69466,N,02405.16631,E,0.354,101.55,301212,176*1b
##
---
$GPRMC,185617.00,A,5654.69870,N,02405.17025,E,0.013,149.88,301212,180*17
$GPRMC,190134.00,A,5654.64649,N,02405.16884,E,18.778,192.51,301212,181*2e
$GPRMC,190145.00,A,5654.61741,N,02405.15625,E,0.030,90.49,301212,181*2a
$GPRMC,190221.00,A,5654.55830,N,02405.11435,E,25.978,201.14,301212,181*22
$GPRMC,190236.00,A,5654.44187,N,02405.03079,E,30.425,201.31,301212,181*28
$GPRMC,190246.00,A,5654.35610,N,02404.97430,E,34.019,200.54,301212,181*28
$GPRMC,190257.00,A,5654.26582,N,02404.90896,E,29.025,201.10,301212,181*27
$GPRMC,190313.00,A,5654.17338,N,02404.84623,E,15.179,200.51,301212,182*26
$GPRMC,190322.00,A,5654.14854,N,02404.82798,E,0.883,200.46,301212,182*1f
$GPRMC,190344.00,A,5654.17359,N,02404.75314,E,5.782,305.69,301212,182*10
$GPRMC,190359.00,A,5654.18073,N,02404.72726,E,0.809,109.22,301212,182*12
$GPRMC,190428.00,A,5654.17773,N,02404.74660,E,0.012,160.90,301212,183*1b
$GPRMC,190454.00,A,5654.17663,N,02404.74876,E,0.963,132.36,301212,183*1d
$GPRMC,210905.00,A,5654.08564,N,02404.77429,E,16.826,200.58,301212,144*26
$GPRMC,210938.00,A,5653.99380,N,02404.72484,E,16.754,199.75,301212,144*2f
$GPRMC,211005.00,A,5653.91372,N,02404.83998,E,27.061,108.63,301212,144*2e
$GPRMC,211012.00,A,5653.90576,N,02404.92581,E,20.213,93.49,301212,143*13
$GPRMC,211021.00,A,5653.90493,N,02405.01473,E,15.706,92.72,301212,143*10
$GPRMC,211056.00,A,5653.98582,N,02405.10520,E,10.117,70.01,301212,143*15
$GPRMC,211117.00,A,5654.00583,N,02405.19435,E,7.127,66.27,301212,143*2c
$GPRMC,211148.00,A,5653.99219,N,02405.28571,E,5.114,100.09,301212,143*19
$GPRMC,211224.00,A,5653.98161,N,02405.32222,E,0.052,257.80,301212,144*16
---
##
